"vendor","slug","area","address","current_latitude","current_longitude","candidate_latitude","candidate_longitude","candidate_address","candidate_confidence","candidate_source","geocode_status","address_confidence","distance_meters","accuracy_grade","priority","area_consistency","current_distance_from_area_center_meters","candidate_distance_from_area_center_meters","current_inside_fct","candidate_inside_fct","duplicate_group_count","recommendation","geocode_query"
"Adamu kilishi","adamu-kilishi","Garki","Sokoto Street, Shagari plaza,by Traffic","9.030478","7.470312","12.501423","5.084473","Sokoto, Nigeria","0.55","MapTiler Geocoding API","OK","HIGH","465683","CRITICAL","HIGH PRIORITY","AREA_MISMATCH_CANDIDATE; CANDIDATE_OUTSIDE_ABUJA_FCT","1487","466827","YES","NO","1","HIGH PRIORITY: verify immediately before relying on map/directions.","Sokoto Street, Shagari plaza,by Traffic, Garki, Abuja, FCT, Nigeria"
"ADAMU SPECIAL KILISHI","adamu-special-kilishi","Garki","Area 1 Shopping Center, Gariki-Abuja","9.031046","7.470413","","","","","","NOT_ATTEMPTED_LOW_ADDRESS_CONFIDENCE","LOW","","NEEDS REVIEW","REVIEW","PASS","1495","","YES","","1","REVIEW: improve address evidence before coordinate correction.",""
"Afaihat","afaihat","Utako","Utako farm market by Miva university","9.074458","7.443211","9.074458","7.443211","Abuja FCT, Municipal Area Council, Nigeria","0.492778","MapTiler Geocoding API","OK","HIGH","0","EXCELLENT","LOW PRIORITY","PASS","542","542","YES","YES","3","LOW PRIORITY: accurate enough by geocode distance but still shares coordinates; review if map overlap matters.","Utako farm market by Miva university, Utako, Abuja, FCT, Nigeria"
"Ahjiah","ahjiah","Wuse","zone 2 by SARS office","9.059056","7.459545","9.062046","7.466555","Wuse, Nigeria","0.469136","MapTiler Geocoding API","OK","HIGH","838","NEEDS REVIEW","REVIEW","AREA_DISTANCE_WARNING","2616","2143","YES","YES","1","REVIEW: candidate mismatch or no reliable candidate; verify manually.","zone 2 by SARS office, Wuse, Abuja, FCT, Nigeria"
"Alice kitchen","alice-kitchen","Utako","Utako Dan suileman 25 street,first turn by your left the street opposite uba and zenith bank.","9.057900","7.495100","9.074458","7.443211","Abuja FCT, Municipal Area Council, Nigeria","0.428725","MapTiler Geocoding API","OK","HIGH","5988","LIKELY WRONG","HIGH PRIORITY","AREA_MISMATCH_CURRENT_COORDINATE","6093","542","YES","YES","5","HIGH PRIORITY: field-agent or map operator correction required.","Utako Dan suileman 25 street,first turn by your left the street opposite, Utako, Abuja, FCT, Nigeria (compact retry after provider query-length limit)"
"Anambra Kitchen","anambra-kitchen","Garki","Garage before Dunamis Church Area 1.","9.025545","7.469465","9.074458","7.443211","Abuja FCT, Municipal Area Council, Nigeria","0.493333","MapTiler Geocoding API","OK","HIGH","6156","LIKELY WRONG","HIGH PRIORITY","AREA_MISMATCH_CANDIDATE","1525","6898","YES","YES","1","HIGH PRIORITY: field-agent or map operator correction required.","Garage before Dunamis Church Area 1., Garki, Abuja, FCT, Nigeria"
"Ann's kitchen","ann-s-kitchen","Garki","Dagba Church village opposite police station Durumi Area 1.","9.025817","7.463713","12.411648","9.085097","Garki, Nigeria","0.438746","MapTiler Geocoding API","OK","HIGH","416068","CRITICAL","HIGH PRIORITY","AREA_MISMATCH_CANDIDATE; CANDIDATE_OUTSIDE_ABUJA_FCT","2153","415073","YES","NO","1","HIGH PRIORITY: verify immediately before relying on map/directions.","Dagba Church village opposite police station Durumi Area 1., Garki, Abuja, FCT, Nigeria"
"Aunty Indomie","aunty-indomie","Life Camp","Lifecamp opposite Polaris bank front of Rufaidai Yoghurt","9.067421","7.404541","9.600036","7.999972","Nigeria","0.311966","MapTiler Geocoding API","OK","MEDIUM","88180","CRITICAL","HIGH PRIORITY","AREA_DISTANCE_WARNING; AREA_MISMATCH_CANDIDATE; CANDIDATE_OUTSIDE_ABUJA_FCT","4318","84541","YES","NO","1","HIGH PRIORITY: verify immediately before relying on map/directions.","Lifecamp opposite Polaris bank front of Rufaidai Yoghurt, Life Camp, Abuja, FCT, Nigeria"
"Awashe suya spot","awashe-suya-spot","Utako","12 AJOSE ADEOGUN STREET BY BLACK GATE UTAKO VILLAGE BESIDE KOREST HOTEL& APARTMENT.","9.069196","7.441154","9.069196","7.441154","Ajose Adeogun Street, 900108 Municipal Area Council, Nigeria","0.501111","MapTiler Geocoding API","OK","HIGH","0","EXCELLENT","LOW PRIORITY","PASS","102","102","YES","YES","1","LOW PRIORITY: location appears trustworthy.","12 AJOSE ADEOGUN STREET BY BLACK GATE UTAKO VILLAGE BESIDE KOREST HOTEL& APARTMENT., Utako, Abuja, FCT, Nigeria"
"Baba Suya","baba-suya","Asokoro","Asokoro opposite Ecowas by Yakubu Gowon street","9.042504","7.524898","9.051093","7.519471","Yakubu Gowon Crescent, 900103 Municipal Area Council, Nigeria","0.572727","MapTiler Geocoding API","OK","HIGH","1126","LIKELY WRONG","HIGH PRIORITY","PASS","1226","626","YES","YES","1","HIGH PRIORITY: field-agent or map operator correction required.","Asokoro opposite Ecowas by Yakubu Gowon street, Asokoro, Abuja, FCT, Nigeria"
"Bianns Cuisine","bianns-cuisine","Wuse","Alexandra Street Berger paint Plaza, Banex Wuse 2","9.062046","7.466555","9.062046","7.466555","Wuse, Nigeria","0.444444","MapTiler Geocoding API","OK","HIGH","0","EXCELLENT","LOW PRIORITY","PASS","2143","2143","YES","YES","4","LOW PRIORITY: accurate enough by geocode distance but still shares coordinates; review if map overlap matters.","Alexandra Street Berger paint Plaza, Banex Wuse 2, Wuse, Abuja, FCT, Nigeria"
"Blessed Kitchen","blessed-kitchen","Wuse","Luanda Crescent, very close to Village Chief Restaurant and Bar, Wuse 2","9.073458","7.472005","9.073458","7.472005","Agadez Crescent, 900104 Municipal Area Council, Nigeria","0.544444","MapTiler Geocoding API","OK","HIGH","0","EXCELLENT","LOW PRIORITY","PASS","1014","1014","YES","YES","2","LOW PRIORITY: accurate enough by geocode distance but still shares coordinates; review if map overlap matters.","Luanda Crescent, very close to Village Chief Restaurant and Bar, Wuse 2, Wuse, Abuja, FCT, Nigeria"
"Blessing","blessing","Utako","Utako market opposite GUO transport Co.","9.074458","7.443211","9.074458","7.443211","Abuja FCT, Municipal Area Council, Nigeria","0.492778","MapTiler Geocoding API","OK","HIGH","0","EXCELLENT","LOW PRIORITY","PASS","542","542","YES","YES","3","LOW PRIORITY: accurate enough by geocode distance but still shares coordinates; review if map overlap matters.","Utako market opposite GUO transport Co., Utako, Abuja, FCT, Nigeria"
"Blessing indomie","blessing-indomie","Jabi","Jabi Bitikuwe street by Car wash","9.073779","7.432843","9.075436","7.422227","Jabi Reservoir, Nigeria","0.513333","MapTiler Geocoding API","OK","HIGH","1180","LIKELY WRONG","HIGH PRIORITY","PASS","1448","1164","YES","YES","1","HIGH PRIORITY: field-agent or map operator correction required.","Jabi Bitikuwe street by Car wash, Jabi, Abuja, FCT, Nigeria"
"Blessing Smoothie","blessing-smoothie","Life Camp","Life camp opposite Kado fish market","9.067775","7.402538","9.090670","7.427440","Kado, Nigeria","0.451178","MapTiler Geocoding API","OK","HIGH","3736","LIKELY WRONG","HIGH PRIORITY","AREA_DISTANCE_WARNING","4527","2500","YES","YES","1","HIGH PRIORITY: field-agent or map operator correction required.","Life camp opposite Kado fish market, Life Camp, Abuja, FCT, Nigeria"
"Calabar kitchen","calabar-kitchen","Life Camp","Lifecamp by Berger Lifecamp","9.079037","7.387282","9.074458","7.443211","Abuja FCT, Municipal Area Council, Nigeria","0.518519","MapTiler Geocoding API","OK","MEDIUM","6162","LIKELY WRONG","HIGH PRIORITY","AREA_MISMATCH_CURRENT_COORDINATE","6162","0","YES","YES","1","HIGH PRIORITY: field-agent or map operator correction required.","Lifecamp by Berger Lifecamp, Life Camp, Abuja, FCT, Nigeria"
"Chi joy Catherine Services","chi-joy-catherine-services","Jabi","Jabi Eda plaza opposite CHIDA Hotel","9.071605","7.433707","9.075436","7.422227","Jabi Reservoir, Nigeria","0.513333","MapTiler Geocoding API","OK","HIGH","1331","LIKELY WRONG","HIGH PRIORITY","PASS","1377","1164","YES","YES","1","HIGH PRIORITY: field-agent or map operator correction required.","Jabi Eda plaza opposite CHIDA Hotel, Jabi, Abuja, FCT, Nigeria"
"China","china","Life Camp","Lifecamp Bella view phase 3","9.068209","7.408186","","","","","","NOT_ATTEMPTED_LOW_ADDRESS_CONFIDENCE","LOW","","NEEDS REVIEW","REVIEW","AREA_DISTANCE_WARNING","3908","","YES","","1","REVIEW: improve address evidence before coordinate correction.",""
"Chizzy African food","chizzy-african-food","Utako","Utako after NUJ FCT Council opposite Jabii garage","9.065340","7.436614","9.074458","7.443211","Abuja FCT, Municipal Area Council, Nigeria","0.592778","MapTiler Geocoding API","OK","MEDIUM","1246","LIKELY WRONG","HIGH PRIORITY","PASS","716","542","YES","YES","1","HIGH PRIORITY: field-agent or map operator correction required.","Utako after NUJ FCT Council opposite Jabii garage, Utako, Abuja, FCT, Nigeria"
"Christina Onishinu","christina-onishinu","Garki","Besides Ebeniza plaza, opposite a Mechanic.","9.026029","7.463856","12.411648","9.085097","Garki, Nigeria","0.459259","MapTiler Geocoding API","OK","HIGH","416040","CRITICAL","HIGH PRIORITY","AREA_MISMATCH_CANDIDATE; CANDIDATE_OUTSIDE_ABUJA_FCT","2137","415073","YES","NO","1","HIGH PRIORITY: verify immediately before relying on map/directions.","Besides Ebeniza plaza, opposite a Mechanic., Garki, Abuja, FCT, Nigeria"
"Christy","christy","Wuse","zone 2 by UBA","9.058632","7.459438","9.064331","7.489297","Abuja, Municipal Area Council, Nigeria","0.481667","MapTiler Geocoding API","OK","HIGH","3339","LIKELY WRONG","HIGH PRIORITY","AREA_DISTANCE_WARNING","2664","3065","YES","YES","1","HIGH PRIORITY: field-agent or map operator correction required.","zone 2 by UBA, Wuse, Abuja, FCT, Nigeria"
"Comfort Kitchen","comfort-kitchen","Garki","Ayuba waba, Close to Sumabib indomie Factory.","9.026363","7.463999","","","","","","NOT_ATTEMPTED_LOW_ADDRESS_CONFIDENCE","LOW","","NEEDS REVIEW","REVIEW","PASS","2120","","YES","","1","REVIEW: improve address evidence before coordinate correction.",""
"CorrectChow","correctchow","Wuse","Skylak Pharmacy plaza, Aminu Kano Crescent, opposite hustle and bustle, Wuse 2 FCT Abuja","9.079649","7.470913","9.079649","7.470913","Aminu Kano Crescent, 904101 Municipal Area Council, Nigeria","0.52716","MapTiler Geocoding API","OK","HIGH","0","EXCELLENT","LOW PRIORITY","PASS","437","437","YES","YES","2","LOW PRIORITY: accurate enough by geocode distance but still shares coordinates; review if map overlap matters.","Skylak Pharmacy plaza, Aminu Kano Crescent, opposite hustle and bustle, Wuse 2 FCT Abuja, Wuse, Abuja, FCT, Nigeria"
"Diamond Gee global","diamond-gee-global","Apo","David Ejor street back of AP filling station, Apo","9.011378","7.472841","9.074458","7.443211","Abuja FCT, Municipal Area Council, Nigeria","0.472934","MapTiler Geocoding API","OK","HIGH","7732","LIKELY WRONG","HIGH PRIORITY","AREA_MISMATCH_CURRENT_COORDINATE","7732","0","YES","YES","1","HIGH PRIORITY: field-agent or map operator correction required.","David Ejor street back of AP filling station, Apo, Apo, Abuja, FCT, Nigeria"
"Doyin Exclusive Taste","doyin-exclusive-taste","Wuse","Matadi Street, besides Tamara Guest Inn, located at Neighborhood Market zone 3","9.064000","7.456000","9.061725","7.473595","Matadi Street, 900283 Municipal Area Council, Nigeria","0.513889","MapTiler Geocoding API","OK","HIGH","1949","LIKELY WRONG","HIGH PRIORITY","PASS","2289","2284","YES","YES","1","HIGH PRIORITY: field-agent or map operator correction required.","Matadi Street, besides Tamara Guest Inn, located at Neighborhood Market zone 3, Wuse, Abuja, FCT, Nigeria"
"Esther","esther","Utako","Utako village by chief palace.","9.071530","7.445671","9.073820","7.443059","Anthony Enahoro Street Utako, 900108 Municipal Area Council, Nigeria","0.514815","MapTiler Geocoding API","OK","MEDIUM","384","NEEDS REVIEW","REVIEW","PASS","537","471","YES","YES","1","REVIEW: candidate mismatch or no reliable candidate; verify manually.","Utako village by chief palace., Utako, Abuja, FCT, Nigeria"
"Favour","favour-row-022","Gudu","Gudu park Apo Front of Eugols Kitchen","9.000689","7.472025","13.439269","4.481072","Gudu, Nigeria","0.451178","MapTiler Geocoding API","OK","HIGH","591566","CRITICAL","HIGH PRIORITY","AREA_MISMATCH_CURRENT_COORDINATE; AREA_MISMATCH_CANDIDATE; CANDIDATE_OUTSIDE_ABUJA_FCT","8792","582972","YES","NO","1","HIGH PRIORITY: verify immediately before relying on map/directions.","Gudu park Apo Front of Eugols Kitchen, Gudu, Abuja, FCT, Nigeria"
"Favour","favour-row-021","Gudu","Gudu park Apo Front of Eugols Kitchen","8.999889","7.471159","13.439269","4.481072","Gudu, Nigeria","0.451178","MapTiler Geocoding API","OK","HIGH","591589","CRITICAL","HIGH PRIORITY","AREA_MISMATCH_CURRENT_COORDINATE; AREA_MISMATCH_CANDIDATE; CANDIDATE_OUTSIDE_ABUJA_FCT","8841","582972","YES","NO","1","HIGH PRIORITY: verify immediately before relying on map/directions.","Gudu park Apo Front of Eugols Kitchen, Gudu, Abuja, FCT, Nigeria"
"G&G Restaurant","g-g-restaurant","Garki","Lagos Street Gariki village front of Police veterinary hospital.","9.021222","7.485418","4.762353","7.021299","Lagos Street, Port Harcourt, Nigeria","0.484188","MapTiler Geocoding API","OK","HIGH","476327","CRITICAL","HIGH PRIORITY","AREA_MISMATCH_CANDIDATE; CANDIDATE_OUTSIDE_ABUJA_FCT","652","476908","YES","NO","1","HIGH PRIORITY: verify immediately before relying on map/directions.","Lagos Street Gariki village front of Police veterinary hospital., Garki, Abuja, FCT, Nigeria"
"gift","gift","Wuse","zone 5 by FIRS","9.063903","7.455505","9.062046","7.466555","Wuse, Nigeria","0.481481","MapTiler Geocoding API","OK","HIGH","1231","LIKELY WRONG","HIGH PRIORITY","PASS","2328","2143","YES","YES","1","HIGH PRIORITY: field-agent or map operator correction required.","zone 5 by FIRS, Wuse, Abuja, FCT, Nigeria"
"God's Hand food vendor","god-s-hand-food-vendor","Jabi","Jabi by Nigeria center for Diseases Control.","9.070958","7.432193","5.555400","8.149800","Eastern Nigeria Development Corporation Ibiae Oil Palm Estate, Nigeria","0.396061","MapTiler Geocoding API","OK","MEDIUM","398842","CRITICAL","HIGH PRIORITY","AREA_MISMATCH_CANDIDATE; CANDIDATE_OUTSIDE_ABUJA_FCT","1198","398393","YES","NO","1","HIGH PRIORITY: verify immediately before relying on map/directions.","Jabi by Nigeria center for Diseases Control., Jabi, Abuja, FCT, Nigeria"
"Gub's Kitchen Ventures","gubs-kitchen-ventures","Wuse","Sakode Street opposite PDP Office in Wuse Zone 5, Abuja.","9.072000","7.454800","9.062046","7.466555","Wuse, Nigeria","0.433862","MapTiler Geocoding API","OK","HIGH","1700","LIKELY WRONG","HIGH PRIORITY","PASS","1718","2143","YES","YES","1","HIGH PRIORITY: field-agent or map operator correction required.","Sakode Street opposite PDP Office in Wuse Zone 5, Abuja., Wuse, Abuja, FCT, Nigeria"
"Idoma Kitchen","idoma-kitchen","Wuse","Ruby Center, beside Kilimanjaro at Amino Kano Crescent, Wuse 2,","9.073458","7.472005","9.073458","7.472005","Agadez Crescent, 900104 Municipal Area Council, Nigeria","0.560317","MapTiler Geocoding API","OK","HIGH","0","EXCELLENT","LOW PRIORITY","PASS","1014","1014","YES","YES","2","LOW PRIORITY: accurate enough by geocode distance but still shares coordinates; review if map overlap matters.","Ruby Center, beside Kilimanjaro at Amino Kano Crescent, Wuse 2,, Wuse, Abuja, FCT, Nigeria"
"Ify plantain","ify-plantain","Gudu","Gudu park Apo","8.999855","7.471179","13.439269","4.481072","Gudu, Nigeria","0.497354","MapTiler Geocoding API","OK","HIGH","591593","CRITICAL","HIGH PRIORITY","AREA_MISMATCH_CURRENT_COORDINATE; AREA_MISMATCH_CANDIDATE; CANDIDATE_OUTSIDE_ABUJA_FCT","8846","582972","YES","NO","1","HIGH PRIORITY: verify immediately before relying on map/directions.","Gudu park Apo, Gudu, Abuja, FCT, Nigeria"
"IVY KITCHEN","ivy-kitchen","Asokoro","Asokoro opposite Ecowas by Yakubu Gowon street","9.042694","7.525182","9.051093","7.519471","Yakubu Gowon Crescent, 900103 Municipal Area Council, Nigeria","0.572727","MapTiler Geocoding API","OK","HIGH","1125","LIKELY WRONG","HIGH PRIORITY","PASS","1244","626","YES","YES","1","HIGH PRIORITY: field-agent or map operator correction required.","Asokoro opposite Ecowas by Yakubu Gowon street, Asokoro, Abuja, FCT, Nigeria"
"Iya","iya","Gudu","First gate Gudu Market opposite Police Station. (APO)","8.999937","7.472287","9.008177","7.479903","Gudu District, Municipal Area Council, Nigeria","0.457407","MapTiler Geocoding API","OK","HIGH","1241","LIKELY WRONG","HIGH PRIORITY","AREA_MISMATCH_CURRENT_COORDINATE; AREA_MISMATCH_CANDIDATE","8880","8400","YES","YES","1","HIGH PRIORITY: field-agent or map operator correction required.","First gate Gudu Market opposite Police Station. (APO), Gudu, Abuja, FCT, Nigeria"
"Joy Cathering and outdoor services","joy-cathering-and-outdoor-services","Asokoro","Asokoro by General hospital back gate","9.047005","7.524386","9.042346","7.519686","Asokoro, Nigeria","0.459259","MapTiler Geocoding API","OK","MEDIUM","731","NEEDS REVIEW","REVIEW","PASS","1033","779","YES","YES","1","REVIEW: candidate mismatch or no reliable candidate; verify manually.","Asokoro by General hospital back gate, Asokoro, Abuja, FCT, Nigeria"
"Joy Fish Service","joy-fish-service","Life Camp","Lifecamp T-shirt junction opposite AP filling station.","9.067647","7.404028","11.170944","7.626570","T, Nigeria","0.438746","MapTiler Geocoding API","OK","MEDIUM","235141","CRITICAL","HIGH PRIORITY","AREA_DISTANCE_WARNING; AREA_MISMATCH_CANDIDATE; CANDIDATE_OUTSIDE_ABUJA_FCT","4369","233981","YES","NO","1","HIGH PRIORITY: verify immediately before relying on map/directions.","Lifecamp T-shirt junction opposite AP filling station., Life Camp, Abuja, FCT, Nigeria"
"KC faith kitchen","kc-faith-kitchen","Utako","Utako market opposite WESTGATE TECHNOLOGIES.","9.066981","7.445319","9.073820","7.443059","Anthony Enahoro Street Utako, 900108 Municipal Area Council, Nigeria","0.514815","MapTiler Geocoding API","OK","HIGH","800","NEEDS REVIEW","REVIEW","PASS","588","471","YES","YES","1","REVIEW: candidate mismatch or no reliable candidate; verify manually.","Utako market opposite WESTGATE TECHNOLOGIES., Utako, Abuja, FCT, Nigeria"
"Lajawa Suya and Barbecue","lajawa-suya-and-barbecue","Wuse","Constantine Street beside Zone 4 Plaza within the bureau de change area in Zone 4 Abuja","9.065500","7.476800","9.064783","7.477182","Constantine Street, 900281 Municipal Area Council, Nigeria","0.516667","MapTiler Geocoding API","OK","HIGH","90","GOOD","LOW PRIORITY","PASS","2043","2133","YES","YES","1","LOW PRIORITY: location appears trustworthy.","Constantine Street beside Zone 4 Plaza within the bureau de change area in Zone 4 Abuja, Wuse, Abuja, FCT, Nigeria"
"Laraba","laraba","Wuse","zone 2 by ogadugwu","9.062046","7.466555","9.062046","7.466555","Wuse, Nigeria","0.481481","MapTiler Geocoding API","OK","HIGH","0","EXCELLENT","LOW PRIORITY","PASS","2143","2143","YES","YES","4","LOW PRIORITY: accurate enough by geocode distance but still shares coordinates; review if map overlap matters.","zone 2 by ogadugwu, Wuse, Abuja, FCT, Nigeria"
"madam Bole","madam-bole","Utako","Utako village besides Lebress plaza, by back of Eternal station","9.068535","7.438329","9.069110","7.443530","Utako, Nigeria","0.433862","MapTiler Geocoding API","OK","HIGH","575","NEEDS REVIEW","REVIEW","PASS","341","299","YES","YES","1","REVIEW: candidate mismatch or no reliable candidate; verify manually.","Utako village besides Lebress plaza, by back of Eternal station, Utako, Abuja, FCT, Nigeria"
"Madam Calabar","madam-calabar","Asokoro","GNASSINGBE EYADEMA STREET OPPOSITE GOMBE STATE LIAISON OFFICE ASOKORO.","9.040690","7.523326","9.041252","7.523117","Gnassingbe Eyadema Street, 900103 Municipal Area Council, Nigeria","0.521368","MapTiler Geocoding API","OK","HIGH","67","VERY GOOD","LOW PRIORITY","PASS","1194","1137","YES","YES","1","LOW PRIORITY: location appears trustworthy.","GNASSINGBE EYADEMA STREET OPPOSITE GOMBE STATE LIAISON OFFICE ASOKORO., Asokoro, Abuja, FCT, Nigeria"
"Madam Cash","madam-cash","Asokoro","Asokoro Village by Building Material .","9.045927","7.522983","9.045927","7.522983","Asokoro Abuja, Municipal Area Council, Nigeria","0.510062","MapTiler Geocoding API","OK","MEDIUM","0","EXCELLENT","LOW PRIORITY","PASS","896","896","YES","YES","3","LOW PRIORITY: accurate enough by geocode distance but still shares coordinates; review if map overlap matters.","Asokoro Village by Building Material ., Asokoro, Abuja, FCT, Nigeria"
"Madam CoCo","madam-coco","Asokoro","Asokoro by Police station","9.051922","7.524800","9.045927","7.522983","Asokoro Abuja, Municipal Area Council, Nigeria","0.531667","MapTiler Geocoding API","OK","MEDIUM","696","NEEDS REVIEW","REVIEW","PASS","1179","896","YES","YES","1","REVIEW: candidate mismatch or no reliable candidate; verify manually.","Asokoro by Police station, Asokoro, Abuja, FCT, Nigeria"
"Madam Cynthia Roasted yams, plantains nd Beans","madam-cynthia-roasted-yams-plantains-nd-beans","Wuse","The behind or back of U.B.A Branch at Zone 3, very close to Febson Mall along Sultan Abubarka Way, Abuja","9.064500","7.456500","9.062046","7.466555","Wuse, Nigeria","0.425926","MapTiler Geocoding API","OK","HIGH","1137","LIKELY WRONG","HIGH PRIORITY","PASS","2213","2143","YES","YES","1","HIGH PRIORITY: field-agent or map operator correction required.","The behind or back of U.B.A Branch at Zone 3, very close, Wuse, Abuja, FCT, Nigeria (compact retry after provider query-length limit)"
"madam Ekaette","madam-ekaette","Wuse","zone 5 by spar supermarket","9.064179","7.457900","9.062046","7.466555","Wuse, Nigeria","0.469136","MapTiler Geocoding API","OK","HIGH","980","NEEDS REVIEW","REVIEW","PASS","2166","2143","YES","YES","1","REVIEW: candidate mismatch or no reliable candidate; verify manually.","zone 5 by spar supermarket, Wuse, Abuja, FCT, Nigeria"
"Madam Fish","madam-fish","Jabi","Jabi kpana village opposite Pudimu plaza.","9.072068","7.433124","9.064623","7.421007","Jabi District, Municipal Area Council, Nigeria","0.615556","MapTiler Geocoding API","OK","HIGH","1567","LIKELY WRONG","HIGH PRIORITY","PASS","1352","234","YES","YES","1","HIGH PRIORITY: field-agent or map operator correction required.","Jabi kpana village opposite Pudimu plaza., Jabi, Abuja, FCT, Nigeria"
"madam food","madam-food","Asokoro","Asokoro back of Foursquare church after the round about.","9.053476","7.524534","7.464787","5.423214","Round About, Ise/Orun, Nigeria","0.472934","MapTiler Geocoding API","OK","MEDIUM","290984","CRITICAL","HIGH PRIORITY","AREA_MISMATCH_CANDIDATE; CANDIDATE_OUTSIDE_ABUJA_FCT","1234","289755","YES","NO","1","HIGH PRIORITY: verify immediately before relying on map/directions.","Asokoro back of Foursquare church after the round about., Asokoro, Abuja, FCT, Nigeria"
"Madam Franka","madam-franka","Life Camp","Life camp junction opposite Submit Villa","9.067772","7.402510","9.600036","7.999972","Nigeria","0.318182","MapTiler Geocoding API","OK","MEDIUM","88320","CRITICAL","HIGH PRIORITY","AREA_DISTANCE_WARNING; AREA_MISMATCH_CANDIDATE; CANDIDATE_OUTSIDE_ABUJA_FCT","4531","84541","YES","NO","1","HIGH PRIORITY: verify immediately before relying on map/directions.","Life camp junction opposite Submit Villa, Life Camp, Abuja, FCT, Nigeria"
"Madam Indomie","madam-indomie-row-016","Gudu","Gudu District Market front of NB Plaza, APO","8.998249","7.471815","13.439269","4.481072","Gudu, Nigeria","0.444444","MapTiler Geocoding API","OK","HIGH","591781","CRITICAL","HIGH PRIORITY","AREA_MISMATCH_CURRENT_COORDINATE; AREA_MISMATCH_CANDIDATE; CANDIDATE_OUTSIDE_ABUJA_FCT","9037","582972","YES","NO","1","HIGH PRIORITY: verify immediately before relying on map/directions.","Gudu District Market front of NB Plaza, APO, Gudu, Abuja, FCT, Nigeria"
"Madam Indomie","madam-indomie-row-067","Jabi","Jabi opposite white plain British School, behind plastic collection center","9.061188","7.421405","9.600036","7.999972","Nigeria","0.309524","MapTiler Geocoding API","OK","MEDIUM","87293","CRITICAL","HIGH PRIORITY","AREA_MISMATCH_CANDIDATE; CANDIDATE_OUTSIDE_ABUJA_FCT","463","86867","YES","NO","1","HIGH PRIORITY: verify immediately before relying on map/directions.","Jabi opposite white plain British School, behind plastic collection center, Jabi, Abuja, FCT, Nigeria"
"Madam Jos","madam-jos","Garki","Obiaja Close opposite Akintola Bulavad Along Gariki Market.","9.018934","7.492072","12.411648","9.085097","Garki, Nigeria","0.444444","MapTiler Geocoding API","OK","HIGH","415455","CRITICAL","HIGH PRIORITY","AREA_MISMATCH_CANDIDATE; CANDIDATE_OUTSIDE_ABUJA_FCT","1294","415073","YES","NO","1","HIGH PRIORITY: verify immediately before relying on map/directions.","Obiaja Close opposite Akintola Bulavad Along Gariki Market., Garki, Abuja, FCT, Nigeria"
"Madam leaky finger","madam-leaky-finger","Apo","Gudu park Apo","9.000146","7.471777","13.439269","4.481072","Gudu, Nigeria","0.497354","MapTiler Geocoding API","OK","HIGH","591602","CRITICAL","HIGH PRIORITY","AREA_MISMATCH_CURRENT_COORDINATE; AREA_MISMATCH_CANDIDATE; CANDIDATE_OUTSIDE_ABUJA_FCT","8839","582972","YES","NO","1","HIGH PRIORITY: verify immediately before relying on map/directions.","Gudu park Apo, Apo, Abuja, FCT, Nigeria"
"Madam Mbpodium plantain","madam-mbpodium-plantain","Jabi","Jabi front of UOO plaza Aluminum plaza","9.061818","7.419552","9.064623","7.421007","Jabi, Nigeria","0.451178","MapTiler Geocoding API","OK","HIGH","350","NEEDS REVIEW","REVIEW","PASS","526","234","YES","YES","1","REVIEW: candidate mismatch or no reliable candidate; verify manually.","Jabi front of UOO plaza Aluminum plaza, Jabi, Abuja, FCT, Nigeria"
"Madam No be lie","madam-no-be-lie","Life Camp","Lifecamp by Berger Lifecamp","9.078543","7.389785","9.074458","7.443211","Abuja FCT, Municipal Area Council, Nigeria","0.518519","MapTiler Geocoding API","OK","MEDIUM","5884","LIKELY WRONG","HIGH PRIORITY","AREA_MISMATCH_CURRENT_COORDINATE","5884","0","YES","YES","1","HIGH PRIORITY: field-agent or map operator correction required.","Lifecamp by Berger Lifecamp, Life Camp, Abuja, FCT, Nigeria"
"Madam put more","madam-put-more","Jabi","Jabi Wazobia back of Zenith bank","9.066623","7.431168","9.075436","7.422227","Jabi Reservoir, Nigeria","0.513333","MapTiler Geocoding API","OK","MEDIUM","1387","LIKELY WRONG","HIGH PRIORITY","PASS","904","1164","YES","YES","1","HIGH PRIORITY: field-agent or map operator correction required.","Jabi Wazobia back of Zenith bank, Jabi, Abuja, FCT, Nigeria"
"Madam Roasted yam","madam-roasted-yam","Asokoro","Kpaguma 2 Asokoro Village Extension .","9.016030","7.516771","9.045927","7.522983","Asokoro Abuja, Municipal Area Council, Nigeria","0.510062","MapTiler Geocoding API","OK","HIGH","3394","LIKELY WRONG","HIGH PRIORITY","AREA_DISTANCE_WARNING","3516","896","YES","YES","1","HIGH PRIORITY: field-agent or map operator correction required.","Kpaguma 2 Asokoro Village Extension ., Asokoro, Abuja, FCT, Nigeria"
"Madam TIV","madam-tiv","Garki","Area 1 Gwagwalada park.","9.027832","7.467187","","","","","","NOT_ATTEMPTED_LOW_ADDRESS_CONFIDENCE","LOW","","NEEDS REVIEW","REVIEW","PASS","1774","","YES","","1","REVIEW: improve address evidence before coordinate correction.",""
"madam yam","madam-yam","Wuse","zone 2 by Mambolo street","9.062046","7.466555","9.062046","7.466555","Wuse, Nigeria","0.469136","MapTiler Geocoding API","OK","HIGH","0","EXCELLENT","LOW PRIORITY","PASS","2143","2143","YES","YES","4","LOW PRIORITY: accurate enough by geocode distance but still shares coordinates; review if map overlap matters.","zone 2 by Mambolo street, Wuse, Abuja, FCT, Nigeria"
"Magdalene","magdalene","Garki","Suka street opposite Correct place, Adjacent to Lagos Street.","9.021629","7.487287","6.526904","3.577400","Lagos State, Nigeria","0.438746","MapTiler Geocoding API","OK","HIGH","512325","CRITICAL","HIGH PRIORITY","AREA_MISMATCH_CANDIDATE; CANDIDATE_OUTSIDE_ABUJA_FCT","714","512259","YES","NO","1","HIGH PRIORITY: verify immediately before relying on map/directions.","Suka street opposite Correct place, Adjacent to Lagos Street., Garki, Abuja, FCT, Nigeria"
"mai Awara","mai-awara","Jabi","Jabi Bitikuwe street","9.073216","7.432580","9.075436","7.422227","Jabi Reservoir, Nigeria","0.566667","MapTiler Geocoding API","OK","HIGH","1163","LIKELY WRONG","HIGH PRIORITY","PASS","1385","1164","YES","YES","1","HIGH PRIORITY: field-agent or map operator correction required.","Jabi Bitikuwe street, Jabi, Abuja, FCT, Nigeria"
"Mai kilishi","mai-kilishi","Utako","Utako market by Ekeson","9.066915","7.444081","9.074458","7.443211","Abuja FCT, Municipal Area Council, Nigeria","0.531667","MapTiler Geocoding API","OK","HIGH","844","NEEDS REVIEW","REVIEW","PASS","490","542","YES","YES","1","REVIEW: candidate mismatch or no reliable candidate; verify manually.","Utako market by Ekeson, Utako, Abuja, FCT, Nigeria"
"Mai Nama","mai-nama","Gudu","opposite Gaduwa Estate, Gaduwa Gudu Apo.","9.002695","7.464647","13.439269","4.481072","Gudu, Nigeria","0.459259","MapTiler Geocoding API","OK","HIGH","590936","CRITICAL","HIGH PRIORITY","AREA_MISMATCH_CURRENT_COORDINATE; AREA_MISMATCH_CANDIDATE; CANDIDATE_OUTSIDE_ABUJA_FCT","8320","582972","YES","NO","1","HIGH PRIORITY: verify immediately before relying on map/directions.","opposite Gaduwa Estate, Gaduwa Gudu Apo., Gudu, Abuja, FCT, Nigeria"
"Mai Suya","mai-suya","Garki","Dunamis Market by Dunamis Junction","9.025971","7.470082","12.411648","9.085097","Garki, Nigeria","0.469136","MapTiler Geocoding API","OK","HIGH","415757","CRITICAL","HIGH PRIORITY","AREA_MISMATCH_CANDIDATE; CANDIDATE_OUTSIDE_ABUJA_FCT","1454","415073","YES","NO","1","HIGH PRIORITY: verify immediately before relying on map/directions.","Dunamis Market by Dunamis Junction, Garki, Abuja, FCT, Nigeria"
"Mama Ada","mama-ada","Asokoro","Asokoro Garden by the round about","9.049996","7.527258","9.042346","7.519686","Asokoro, Nigeria","0.459259","MapTiler Geocoding API","OK","MEDIUM","1189","LIKELY WRONG","HIGH PRIORITY","PASS","1372","779","YES","YES","1","HIGH PRIORITY: field-agent or map operator correction required.","Asokoro Garden by the round about, Asokoro, Abuja, FCT, Nigeria"
"Mama Akara","mama-akara","Wuse","wuse zone 5 by lbro Hotel Annex","9.062834","7.455828","9.062046","7.466555","Wuse, Nigeria","0.451178","MapTiler Geocoding API","OK","HIGH","1181","LIKELY WRONG","HIGH PRIORITY","PASS","2409","2143","YES","YES","1","HIGH PRIORITY: field-agent or map operator correction required.","wuse zone 5 by lbro Hotel Annex, Wuse, Abuja, FCT, Nigeria"
"Mama Amira","mama-amira","Asokoro","Asokoro Village Kpanduma 2 by pantaker.","9.045927","7.522983","9.045927","7.522983","Asokoro Abuja, Municipal Area Council, Nigeria","0.492778","MapTiler Geocoding API","OK","HIGH","0","EXCELLENT","LOW PRIORITY","PASS","896","896","YES","YES","3","LOW PRIORITY: accurate enough by geocode distance but still shares coordinates; review if map overlap matters.","Asokoro Village Kpanduma 2 by pantaker., Asokoro, Abuja, FCT, Nigeria"
"Mama Awara","mama-awara","Asokoro","Asokoro Village Extension by Apostolic church,Lawna Territory .","9.016986","7.514814","9.042346","7.519686","Asokoro, Nigeria","0.57037","MapTiler Geocoding API","OK","MEDIUM","2870","LIKELY WRONG","HIGH PRIORITY","AREA_DISTANCE_WARNING","3404","779","YES","YES","1","HIGH PRIORITY: field-agent or map operator correction required.","Asokoro Village Extension by Apostolic church,Lawna Territory ., Asokoro, Abuja, FCT, Nigeria"
"mama blessing","mama-blessing","Wuse","zone 3 general hospital/Neighborhood","9.061692","7.468875","9.062046","7.466555","Wuse, Nigeria","0.469136","MapTiler Geocoding API","OK","HIGH","258","ACCEPTABLE","LOW PRIORITY","PASS","2187","2143","YES","YES","1","LOW PRIORITY: location appears trustworthy.","zone 3 general hospital/Neighborhood, Wuse, Abuja, FCT, Nigeria"
"Mama Bole","mama-bole","Jabi","Jabi Wazobia back of Zenith bank.","9.075436","7.422227","9.075436","7.422227","Jabi Reservoir, Nigeria","0.513333","MapTiler Geocoding API","OK","MEDIUM","0","EXCELLENT","LOW PRIORITY","PASS","1164","1164","YES","YES","1","LOW PRIORITY: location appears trustworthy.","Jabi Wazobia back of Zenith bank., Jabi, Abuja, FCT, Nigeria"
"Mama Daniel","mama-daniel","Utako","Ngozi okomji iwala opposite No 4 v","9.070189","7.445881","9.074458","7.443211","Abuja FCT, Municipal Area Council, Nigeria","0.478636","MapTiler Geocoding API","OK","HIGH","558","NEEDS REVIEW","REVIEW","PASS","536","542","YES","YES","1","REVIEW: candidate mismatch or no reliable candidate; verify manually.","Ngozi okomji iwala opposite No 4 v, Utako, Abuja, FCT, Nigeria"
"Mama Edo","mama-edo","Garki","Dagba, Area 1 besides Ebeneza plaza","9.026045","7.463851","","","","","","NOT_ATTEMPTED_LOW_ADDRESS_CONFIDENCE","LOW","","NEEDS REVIEW","REVIEW","PASS","2137","","YES","","1","REVIEW: improve address evidence before coordinate correction.",""
"Mama Ejima home cooking restaurant","mama-ejima-home-cooking-restaurant","Wuse","Maputa Street in Neighborhood Market at Wuse 3","9.066700","7.457200","9.062046","7.466555","Wuse, Nigeria","0.444444","MapTiler Geocoding API","OK","HIGH","1150","LIKELY WRONG","HIGH PRIORITY","PASS","1966","2143","YES","YES","2","HIGH PRIORITY: field-agent or map operator correction required.","Maputa Street in Neighborhood Market at Wuse 3, Wuse, Abuja, FCT, Nigeria"
"Mama Ezikel","mama-ezikel","Life Camp","Lifecamp opposite Melani wellness front of Rufaidai Yoghurt","9.067436","7.404266","9.600036","7.999972","Nigeria","0.311966","MapTiler Geocoding API","OK","MEDIUM","88202","CRITICAL","HIGH PRIORITY","AREA_DISTANCE_WARNING; AREA_MISMATCH_CANDIDATE; CANDIDATE_OUTSIDE_ABUJA_FCT","4347","84541","YES","NO","1","HIGH PRIORITY: verify immediately before relying on map/directions.","Lifecamp opposite Melani wellness front of Rufaidai Yoghurt, Life Camp, Abuja, FCT, Nigeria"
"Mama food","mama-food","Wuse","Zone 2 by UBA","9.064331","7.489297","9.064331","7.489297","Abuja, Municipal Area Council, Nigeria","0.481667","MapTiler Geocoding API","OK","HIGH","0","EXCELLENT","LOW PRIORITY","AREA_DISTANCE_WARNING","3065","3065","YES","YES","1","LOW PRIORITY: location appears trustworthy.","Zone 2 by UBA, Wuse, Abuja, FCT, Nigeria"
"Mama Hassan","mama-hassan","Garki","Enough stress By Lagos Street opposite H-medix","9.023996","7.487406","6.526904","3.577400","Lagos State, Nigeria","0.444444","MapTiler Geocoding API","OK","HIGH","512477","CRITICAL","HIGH PRIORITY","AREA_MISMATCH_CANDIDATE; CANDIDATE_OUTSIDE_ABUJA_FCT","542","512259","YES","NO","1","HIGH PRIORITY: verify immediately before relying on map/directions.","Enough stress By Lagos Street opposite H-medix, Garki, Abuja, FCT, Nigeria"
"Mama Jemila Akara and pap","mama-jemila-akara-and-pap","Wuse","Maputa Street in Neighborhood Market at Wuse Zone 3 close to FRSC Headquarters Abuja","9.066700","7.457200","9.064331","7.489297","Abuja, Municipal Area Council, Nigeria","0.508642","MapTiler Geocoding API","OK","HIGH","3534","LIKELY WRONG","HIGH PRIORITY","PASS","1966","3065","YES","YES","2","HIGH PRIORITY: field-agent or map operator correction required.","Maputa Street in Neighborhood Market at Wuse Zone 3 close to FRSC Headquarters Abuja, Wuse, Abuja, FCT, Nigeria"
"Mama Lovina","mama-lovina","Gudu","Gaduwa junction beside MRS filling station, opposite AXIS Plaza. (Gudu)","9.003595","7.464559","13.439269","4.481072","Gudu, Nigeria","0.433862","MapTiler Geocoding API","OK","HIGH","590847","CRITICAL","HIGH PRIORITY","AREA_MISMATCH_CURRENT_COORDINATE; AREA_MISMATCH_CANDIDATE; CANDIDATE_OUTSIDE_ABUJA_FCT","8221","582972","YES","NO","1","HIGH PRIORITY: verify immediately before relying on map/directions.","Gaduwa junction beside MRS filling station, opposite AXIS Plaza. (Gudu), Gudu, Abuja, FCT, Nigeria"
"Mama mary","mama-mary-2","Utako","Utako market by SAY plaza","9.067147","7.446190","9.074458","7.443211","Abuja FCT, Municipal Area Council, Nigeria","0.510062","MapTiler Geocoding API","OK","HIGH","876","NEEDS REVIEW","REVIEW","PASS","658","542","YES","YES","1","REVIEW: candidate mismatch or no reliable candidate; verify manually.","Utako market by SAY plaza, Utako, Abuja, FCT, Nigeria"
"Mama mary","mama-mary","Utako","Utako opposite NUJ Fct Council","9.065973","7.437159","9.069110","7.443530","Utako, Nigeria","0.6","MapTiler Geocoding API","OK","MEDIUM","782","NEEDS REVIEW","REVIEW","PASS","623","299","YES","YES","1","REVIEW: candidate mismatch or no reliable candidate; verify manually.","Utako opposite NUJ Fct Council, Utako, Abuja, FCT, Nigeria"
"Mama mimi","mama-mimi","Garki","Gwagwalada park Area 1","9.027452","7.467905","","","","","","NOT_ATTEMPTED_LOW_ADDRESS_CONFIDENCE","LOW","","NEEDS REVIEW","REVIEW","PASS","1693","","YES","","1","REVIEW: improve address evidence before coordinate correction.",""
"mama miracle","mama-miracle","Wuse","zone 5 by PDP seceteriat.","9.064718","7.456503","9.062046","7.466555","Wuse, Nigeria","0.469136","MapTiler Geocoding API","OK","HIGH","1143","LIKELY WRONG","HIGH PRIORITY","PASS","2192","2143","YES","YES","1","HIGH PRIORITY: field-agent or map operator correction required.","zone 5 by PDP seceteriat., Wuse, Abuja, FCT, Nigeria"
"Mama Mmesoma","mama-mmesoma","Asokoro","Asokoro opposite platinum Mortgage Bank.","9.048964","7.526649","9.045927","7.522983","Asokoro Abuja, Municipal Area Council, Nigeria","0.510062","MapTiler Geocoding API","OK","MEDIUM","525","NEEDS REVIEW","REVIEW","PASS","1288","896","YES","YES","1","REVIEW: candidate mismatch or no reliable candidate; verify manually.","Asokoro opposite platinum Mortgage Bank., Asokoro, Abuja, FCT, Nigeria"
"Mama moi moi","mama-moi-moi","Asokoro","Asokoro Village Extension","9.057900","7.495100","","","","","","NOT_ATTEMPTED_LOW_ADDRESS_CONFIDENCE","LOW","","NEEDS REVIEW","REVIEW","PASS","2467","","YES","","5","REVIEW: improve address evidence before coordinate correction.",""
"Mama Nde","mama-nde","Jabi","Akara N50, pap N200-300, kunu ngeda N300-500 yam N100,potato N50","9.057900","7.495100","","","","","","NOT_ATTEMPTED_LOW_ADDRESS_CONFIDENCE","LOW","","NEEDS REVIEW","REVIEW","AREA_MISMATCH_CURRENT_COORDINATE","7945","","YES","","5","REVIEW: improve address evidence before coordinate correction.",""
"mama Obaje","mama-obaje","Utako","Utako market opposite Mobil filling station","9.066911","7.444742","9.074458","7.443211","Abuja FCT, Municipal Area Council, Nigeria","0.492778","MapTiler Geocoding API","OK","HIGH","856","NEEDS REVIEW","REVIEW","PASS","543","542","YES","YES","1","REVIEW: candidate mismatch or no reliable candidate; verify manually.","Utako market opposite Mobil filling station, Utako, Abuja, FCT, Nigeria"
"Mama Obinna","mama-obinna-row-061","Life Camp","Life camp by 8 point Estate","9.079551","7.386105","9.600036","7.999972","Nigeria","0.318182","MapTiler Geocoding API","OK","HIGH","88804","CRITICAL","HIGH PRIORITY","AREA_MISMATCH_CURRENT_COORDINATE; AREA_MISMATCH_CANDIDATE; CANDIDATE_OUTSIDE_ABUJA_FCT","6296","84541","YES","NO","1","HIGH PRIORITY: verify immediately before relying on map/directions.","Life camp by 8 point Estate, Life Camp, Abuja, FCT, Nigeria"
"Mama Obinna","mama-obinna-row-035","Garki","Akakuku street Gariki B4 H-medix pharmacy.","9.023327","7.485540","12.411648","9.085097","Garki, Nigeria","0.451178","MapTiler Geocoding API","OK","HIGH","415310","CRITICAL","HIGH PRIORITY","AREA_MISMATCH_CANDIDATE; CANDIDATE_OUTSIDE_ABUJA_FCT","449","415073","YES","NO","1","HIGH PRIORITY: verify immediately before relying on map/directions.","Akakuku street Gariki B4 H-medix pharmacy., Garki, Abuja, FCT, Nigeria"
"MaMa Ola","mama-ola","Garki","Opposite Police Station, Shopping Complex Area1","9.031401","7.469866","12.411648","9.085097","Garki, Nigeria","0.459259","MapTiler Geocoding API","OK","HIGH","415220","CRITICAL","HIGH PRIORITY","AREA_MISMATCH_CANDIDATE; CANDIDATE_OUTSIDE_ABUJA_FCT","1565","415073","YES","NO","1","HIGH PRIORITY: verify immediately before relying on map/directions.","Opposite Police Station, Shopping Complex Area1, Garki, Abuja, FCT, Nigeria"
"Mama princess","mama-princess","Wuse","zone 3 by Neighborhood","9.061633","7.468816","9.175833","7.180833","Suleja, Suleja, Nigeria","0.550265","MapTiler Geocoding API","OK","HIGH","34072","LIKELY WRONG","HIGH PRIORITY","AREA_MISMATCH_CANDIDATE","2193","33160","YES","YES","1","HIGH PRIORITY: field-agent or map operator correction required.","zone 3 by Neighborhood, Wuse, Abuja, FCT, Nigeria"
"Mama Shilo","mama-shilo","Jabi","Jabi opposite Sabondele before Mr Biggs","9.062462","7.418682","9.075436","7.422227","Jabi Reservoir, Nigeria","0.513333","MapTiler Geocoding API","OK","MEDIUM","1494","LIKELY WRONG","HIGH PRIORITY","PASS","561","1164","YES","YES","1","HIGH PRIORITY: field-agent or map operator correction required.","Jabi opposite Sabondele before Mr Biggs, Jabi, Abuja, FCT, Nigeria"
"Mama sisi","mama-sisi-row-098","Jabi","Jabi better foundation Plaza by kpana road.","9.065237","7.426970","9.075436","7.422227","Jabi Reservoir, Nigeria","0.50202","MapTiler Geocoding API","OK","HIGH","1248","LIKELY WRONG","HIGH PRIORITY","PASS","426","1164","YES","YES","1","HIGH PRIORITY: field-agent or map operator correction required.","Jabi better foundation Plaza by kpana road., Jabi, Abuja, FCT, Nigeria"
"Mama Sisi","mama-sisi-row-097","Jabi","Jabi better foundation Plaza by kpana road.","9.065612","7.427056","9.075436","7.422227","Jabi Reservoir, Nigeria","0.50202","MapTiler Geocoding API","OK","HIGH","1214","LIKELY WRONG","HIGH PRIORITY","PASS","440","1164","YES","YES","1","HIGH PRIORITY: field-agent or map operator correction required.","Jabi better foundation Plaza by kpana road., Jabi, Abuja, FCT, Nigeria"
"Mama sunny","mama-sunny","Life Camp","Life camp Front of Chimex Bottling company.","9.068706","7.401444","9.600036","7.999972","Nigeria","0.314815","MapTiler Geocoding API","OK","MEDIUM","88337","CRITICAL","HIGH PRIORITY","AREA_DISTANCE_WARNING; AREA_MISMATCH_CANDIDATE; CANDIDATE_OUTSIDE_ABUJA_FCT","4631","84541","YES","NO","1","HIGH PRIORITY: verify immediately before relying on map/directions.","Life camp Front of Chimex Bottling company., Life Camp, Abuja, FCT, Nigeria"
"Mama thank God","mama-thank-god","Jabi","Umaru Dikko Street by Nippco filling station.","9.064992","7.424905","9.064623","7.421007","Jabi, Nigeria","0.451178","MapTiler Geocoding API","OK","HIGH","430","NEEDS REVIEW","REVIEW","PASS","198","234","YES","YES","1","REVIEW: candidate mismatch or no reliable candidate; verify manually.","Umaru Dikko Street by Nippco filling station., Jabi, Abuja, FCT, Nigeria"
"Mandy's signature","mandy-s-signature","Jabi","Jabi opposite ShopRite supermarket","9.075363","7.426240","9.075436","7.422227","Jabi Reservoir, Nigeria","0.544444","MapTiler Geocoding API","OK","MEDIUM","441","NEEDS REVIEW","REVIEW","PASS","1203","1164","YES","YES","1","REVIEW: candidate mismatch or no reliable candidate; verify manually.","Jabi opposite ShopRite supermarket, Jabi, Abuja, FCT, Nigeria"
"Medoya /Mme yam","medoya-mme-yam","Asokoro","Asokoro Village Extension","9.057900","7.495100","","","","","","NOT_ATTEMPTED_LOW_ADDRESS_CONFIDENCE","LOW","","NEEDS REVIEW","REVIEW","PASS","2467","","YES","","5","REVIEW: improve address evidence before coordinate correction.",""
"Mma Afam","mma-afam","Kado","Kado by Gwarimkpa plaza.","9.066476","7.396403","11.888589","8.168249","Kabo, Nigeria","0.534722","MapTiler Geocoding API","OK","HIGH","324953","CRITICAL","HIGH PRIORITY","AREA_MISMATCH_CURRENT_COORDINATE; AREA_MISMATCH_CANDIDATE; CANDIDATE_OUTSIDE_ABUJA_FCT","5216","322801","YES","NO","1","HIGH PRIORITY: verify immediately before relying on map/directions.","Kado by Gwarimkpa plaza., Kado, Abuja, FCT, Nigeria"
"Mme Awara","mme-awara","Asokoro","Angwua Yoruba Asokoro Village Extension","9.013692","7.513726","9.045927","7.522983","Asokoro Abuja, Municipal Area Council, Nigeria","0.510062","MapTiler Geocoding API","OK","MEDIUM","3726","LIKELY WRONG","HIGH PRIORITY","AREA_DISTANCE_WARNING","3773","896","YES","YES","1","HIGH PRIORITY: field-agent or map operator correction required.","Angwua Yoruba Asokoro Village Extension, Asokoro, Abuja, FCT, Nigeria"
"Mme Doya","mme-doya","Utako","Utako village Ajose Adeugo Street by Pamec Hotel","9.068811","7.441082","9.074458","7.443211","Abuja FCT, Municipal Area Council, Nigeria","0.466852","MapTiler Geocoding API","OK","HIGH","670","NEEDS REVIEW","REVIEW","PASS","144","542","YES","YES","1","REVIEW: candidate mismatch or no reliable candidate; verify manually.","Utako village Ajose Adeugo Street by Pamec Hotel, Utako, Abuja, FCT, Nigeria"
"Mme Fura","mme-fura","Asokoro","Asokoro Village Extension Pantaker by Mosque.","9.045927","7.522983","9.045927","7.522983","Asokoro Abuja, Municipal Area Council, Nigeria","0.492778","MapTiler Geocoding API","OK","MEDIUM","0","EXCELLENT","LOW PRIORITY","PASS","896","896","YES","YES","3","LOW PRIORITY: accurate enough by geocode distance but still shares coordinates; review if map overlap matters.","Asokoro Village Extension Pantaker by Mosque., Asokoro, Abuja, FCT, Nigeria"
"Mme kunu","mme-kunu","Utako","Utako village by Chief pallace","9.071372","7.445812","9.073820","7.443059","Anthony Enahoro Street Utako, 900108 Municipal Area Council, Nigeria","0.514815","MapTiler Geocoding API","OK","MEDIUM","407","NEEDS REVIEW","REVIEW","PASS","547","471","YES","YES","1","REVIEW: candidate mismatch or no reliable candidate; verify manually.","Utako village by Chief pallace, Utako, Abuja, FCT, Nigeria"
"mme Masa","mme-masa","Wuse","Sudan street","9.071124","7.455884","","","","","","NOT_ATTEMPTED_LOW_ADDRESS_CONFIDENCE","LOW","","NEEDS REVIEW","REVIEW","PASS","1689","","YES","","1","REVIEW: improve address evidence before coordinate correction.",""
"Mme Suya","mme-suya-row-092","Jabi","Jabi Ebitu Crescent by kpana junction","9.071592","7.432896","9.075436","7.422227","Jabi Reservoir, Nigeria","0.513333","MapTiler Geocoding API","OK","HIGH","1247","LIKELY WRONG","HIGH PRIORITY","PASS","1302","1164","YES","YES","1","HIGH PRIORITY: field-agent or map operator correction required.","Jabi Ebitu Crescent by kpana junction, Jabi, Abuja, FCT, Nigeria"
"Mme Suya","mme-suya-row-083","Asokoro","Asokoro Village Extension Kurundumo 2 Mango tree.","9.014733","7.516885","9.045927","7.522983","Asokoro Abuja, Municipal Area Council, Nigeria","0.478636","MapTiler Geocoding API","OK","HIGH","3533","LIKELY WRONG","HIGH PRIORITY","AREA_DISTANCE_WARNING","3661","896","YES","YES","1","HIGH PRIORITY: field-agent or map operator correction required.","Asokoro Village Extension Kurundumo 2 Mango tree., Asokoro, Abuja, FCT, Nigeria"
"Mme Yam","mme-yam","Life Camp","Mr Bala kona street Kado life camp.","9.067795","7.400118","9.090670","7.427440","Kado, Nigeria","0.444444","MapTiler Geocoding API","OK","HIGH","3933","LIKELY WRONG","HIGH PRIORITY","AREA_DISTANCE_WARNING","4789","2500","YES","YES","1","HIGH PRIORITY: field-agent or map operator correction required.","Mr Bala kona street Kado life camp., Life Camp, Abuja, FCT, Nigeria"
"mummy Dominic","mummy-dominic","Utako","Utako market opposite SAY plaza","9.066554","7.446022","9.073820","7.443059","Anthony Enahoro Street Utako, 900108 Municipal Area Council, Nigeria","0.514815","MapTiler Geocoding API","OK","HIGH","871","NEEDS REVIEW","REVIEW","PASS","678","471","YES","YES","1","REVIEW: candidate mismatch or no reliable candidate; verify manually.","Utako market opposite SAY plaza, Utako, Abuja, FCT, Nigeria"
"Mummy Emma","mummy-emma","Gudu","Gudu District Market After Fcmb Bank, APO","8.998030","7.472592","13.439269","4.481072","Gudu, Nigeria","0.451178","MapTiler Geocoding API","OK","HIGH","591848","CRITICAL","HIGH PRIORITY","AREA_MISMATCH_CURRENT_COORDINATE; AREA_MISMATCH_CANDIDATE; CANDIDATE_OUTSIDE_ABUJA_FCT","9090","582972","YES","NO","1","HIGH PRIORITY: verify immediately before relying on map/directions.","Gudu District Market After Fcmb Bank, APO, Gudu, Abuja, FCT, Nigeria"
"mummy good luck","mummy-good-luck","Wuse","Sudan street","9.070438","7.455884","","","","","","NOT_ATTEMPTED_LOW_ADDRESS_CONFIDENCE","LOW","","NEEDS REVIEW","REVIEW","PASS","1741","","YES","","1","REVIEW: improve address evidence before coordinate correction.",""
"Mummy Samuel","mummy-samuel","Apo","Legislative quarters,Jim Nwobodo Street Apo","9.015418","7.481450","9.074458","7.443211","Abuja FCT, Municipal Area Council, Nigeria","0.503704","MapTiler Geocoding API","OK","HIGH","7793","LIKELY WRONG","HIGH PRIORITY","AREA_MISMATCH_CURRENT_COORDINATE","7793","0","YES","YES","1","HIGH PRIORITY: field-agent or map operator correction required.","Legislative quarters,Jim Nwobodo Street Apo, Apo, Abuja, FCT, Nigeria"
"Mummy Twins","mummy-twins","Life Camp","Lifecamp by gwarimkpa junction","9.068553","7.401477","9.074458","7.443211","Abuja FCT, Municipal Area Council, Nigeria","0.518519","MapTiler Geocoding API","OK","MEDIUM","4629","LIKELY WRONG","HIGH PRIORITY","AREA_DISTANCE_WARNING","4629","0","YES","YES","1","HIGH PRIORITY: field-agent or map operator correction required.","Lifecamp by gwarimkpa junction, Life Camp, Abuja, FCT, Nigeria"
"NATIONS EAT PLATE FAST FOOD","nations-eat-plate-fast-food","Garki","Area 1 before Dunamis Church by Dunamis Junction.","9.024827","7.469010","12.411648","9.085097","Garki, Nigeria","0.444444","MapTiler Geocoding API","OK","HIGH","415922","CRITICAL","HIGH PRIORITY","AREA_MISMATCH_CANDIDATE; CANDIDATE_OUTSIDE_ABUJA_FCT","1583","415073","YES","NO","1","HIGH PRIORITY: verify immediately before relying on map/directions.","Area 1 before Dunamis Church by Dunamis Junction., Garki, Abuja, FCT, Nigeria"
"Native Hut","native-hut","Wuse","Old Banex Plaza, By Access Bank, Wuse 2, FCT Abuja","9.063691","7.477501","9.063691","7.477501","FCT, Municipal Area Council, Nigeria","0.511905","MapTiler Geocoding API","OK","HIGH","0","EXCELLENT","LOW PRIORITY","PASS","2256","2256","YES","YES","2","LOW PRIORITY: accurate enough by geocode distance but still shares coordinates; review if map overlap matters.","Old Banex Plaza, By Access Bank, Wuse 2, FCT Abuja, Wuse, Abuja, FCT, Nigeria"
"NativePot","nativepot","Wuse","Matadi Street beside Tamara Guest Inn along Abidjan Street located at Wuse 3","9.064100","7.456200","9.059397","7.471350","Abidjan Street, 900283 Municipal Area Council, Nigeria","0.58061","MapTiler Geocoding API","OK","HIGH","1744","LIKELY WRONG","HIGH PRIORITY","PASS","2268","2476","YES","YES","1","HIGH PRIORITY: field-agent or map operator correction required.","Matadi Street beside Tamara Guest Inn along Abidjan Street located at Wuse 3, Wuse, Abuja, FCT, Nigeria"
"Nature's delight Natural drink","natures-delight-natural-drink","Wuse","zone 3 by Neighborhood","9.061591","7.469052","9.175833","7.180833","Suleja, Suleja, Nigeria","0.550265","MapTiler Geocoding API","OK","HIGH","34098","LIKELY WRONG","HIGH PRIORITY","AREA_MISMATCH_CANDIDATE","2200","33160","YES","YES","1","HIGH PRIORITY: field-agent or map operator correction required.","zone 3 by Neighborhood, Wuse, Abuja, FCT, Nigeria"
"NIKIS SPECIAL","nikis-special","Utako","utako village by Baptist Church.","9.071374","7.445218","9.073820","7.443059","Anthony Enahoro Street Utako, 900108 Municipal Area Council, Nigeria","0.514815","MapTiler Geocoding API","OK","MEDIUM","361","NEEDS REVIEW","REVIEW","PASS","484","471","YES","YES","1","REVIEW: candidate mismatch or no reliable candidate; verify manually.","utako village by Baptist Church., Utako, Abuja, FCT, Nigeria"
"Nikxy nice","nikxy-nice","Garki","No 56 Sukka Street Gariki Abuja","9.022453","7.487674","","","","","","NOT_ATTEMPTED_LOW_ADDRESS_CONFIDENCE","LOW","","NEEDS REVIEW","REVIEW","PASS","674","","YES","","1","REVIEW: improve address evidence before coordinate correction.",""
"Oga Munkaila fast-food/Meishai","oga-munkaila-fast-foodmeishai","Wuse","Wuse Zone 4, Constantine Street, intersection with shinyanga Street, Abuja.","9.065200","7.477300","9.062046","7.466555","Wuse, Nigeria","0.433862","MapTiler Geocoding API","OK","HIGH","1231","LIKELY WRONG","HIGH PRIORITY","PASS","2100","2143","YES","YES","1","HIGH PRIORITY: field-agent or map operator correction required.","Wuse Zone 4, Constantine Street, intersection with shinyanga Street, Abuja., Wuse, Abuja, FCT, Nigeria"
"Oliver's Burger","olivers-burger","Wuse","Omega Center, Aminu Kano Crescent, Wuse 2 FCT Abuja","9.057900","7.495100","11.894839","8.536413","Kano State, Nigeria","0.438746","MapTiler Geocoding API","OK","HIGH","335368","CRITICAL","HIGH PRIORITY","AREA_DISTANCE_WARNING; AREA_MISMATCH_CANDIDATE; CANDIDATE_OUTSIDE_ABUJA_FCT","4011","333972","YES","NO","5","HIGH PRIORITY: verify immediately before relying on map/directions.","Omega Center, Aminu Kano Crescent, Wuse 2 FCT Abuja, Wuse, Abuja, FCT, Nigeria"
"Ozis Snacks, drinks and fast-food","ozis-snacks-drinks-and-fast-food","Wuse","Banex Plaza Wuse 2, beside ProtoBrand Nig Ltd FCT Abuja","9.063691","7.477501","9.063691","7.477501","FCT, Municipal Area Council, Nigeria","0.511905","MapTiler Geocoding API","OK","HIGH","0","EXCELLENT","LOW PRIORITY","PASS","2256","2256","YES","YES","2","LOW PRIORITY: accurate enough by geocode distance but still shares coordinates; review if map overlap matters.","Banex Plaza Wuse 2, beside ProtoBrand Nig Ltd FCT Abuja, Wuse, Abuja, FCT, Nigeria"
"Potable kitchen","potable-kitchen","Jabi","jabi back of FCDA quarters behind Recycling plastic center.","9.060501","7.421405","9.075436","7.422227","Jabi Reservoir, Nigeria","0.484615","MapTiler Geocoding API","OK","MEDIUM","1663","LIKELY WRONG","HIGH PRIORITY","PASS","534","1164","YES","YES","1","HIGH PRIORITY: field-agent or map operator correction required.","jabi back of FCDA quarters behind Recycling plastic center., Jabi, Abuja, FCT, Nigeria"
"Precious Indomie","precious-indomie","Garki","Area 1 opposite Gwagwalada park, VIO street.","9.028488","7.466356","9.068411","7.024430","Gwagwalada, Nigeria","0.451178","MapTiler Geocoding API","OK","HIGH","48731","LIKELY WRONG","HIGH PRIORITY","AREA_MISMATCH_CANDIDATE","1871","50602","YES","YES","1","HIGH PRIORITY: field-agent or map operator correction required.","Area 1 opposite Gwagwalada park, VIO street., Garki, Abuja, FCT, Nigeria"
"quasi quasi","quasi-quasi","Wuse","zone 2 by ogadugwu","9.058057","7.460924","9.062046","7.466555","Wuse, Nigeria","0.481481","MapTiler Geocoding API","OK","HIGH","761","NEEDS REVIEW","REVIEW","AREA_DISTANCE_WARNING","2678","2143","YES","YES","1","REVIEW: candidate mismatch or no reliable candidate; verify manually.","zone 2 by ogadugwu, Wuse, Abuja, FCT, Nigeria"
"Salisu Suya and grill Spot","salisu-suya-and-grill-spot","Wuse","Lingu Street, opposite Health Trust Plaza off Aminu Kano, FCT Abuja","9.079649","7.470913","9.079649","7.470913","Aminu Kano Crescent, 904101 Municipal Area Council, Nigeria","0.44","MapTiler Geocoding API","OK","HIGH","0","EXCELLENT","LOW PRIORITY","PASS","437","437","YES","YES","2","LOW PRIORITY: accurate enough by geocode distance but still shares coordinates; review if map overlap matters.","Lingu Street, opposite Health Trust Plaza off Aminu Kano, FCT Abuja, Wuse, Abuja, FCT, Nigeria"
"Samira","samira","Gudu","Gaduwa opposite Toastpan Eatery, (Gudu)","9.002836","7.464885","9.008177","7.479903","Gudu District, Municipal Area Council, Nigeria","0.489506","MapTiler Geocoding API","OK","MEDIUM","1753","LIKELY WRONG","HIGH PRIORITY","AREA_MISMATCH_CURRENT_COORDINATE; AREA_MISMATCH_CANDIDATE","8312","8400","YES","YES","1","HIGH PRIORITY: field-agent or map operator correction required.","Gaduwa opposite Toastpan Eatery, (Gudu), Gudu, Abuja, FCT, Nigeria"
"SANA'S FOOD COMBO","sana-s-food-combo","Apo","Legislative quarters No 2 IDRIS GARBA CLOSE Apo.","9.012124","7.478056","9.032166","7.498582","Garki II, Nigeria","0.355556","MapTiler Geocoding API","OK","HIGH","3170","LIKELY WRONG","HIGH PRIORITY","AREA_MISMATCH_CURRENT_COORDINATE; AREA_MISMATCH_CANDIDATE","7917","7687","YES","YES","1","HIGH PRIORITY: field-agent or map operator correction required.","Legislative quarters No 2 IDRIS GARBA CLOSE Apo., Apo, Abuja, FCT, Nigeria"
"Special","special","Wuse","zone 6 junction by NNPC filling station.","9.067079","7.455724","9.062046","7.466555","Wuse, Nigeria","0.451178","MapTiler Geocoding API","OK","HIGH","1314","LIKELY WRONG","HIGH PRIORITY","PASS","2029","2143","YES","YES","1","HIGH PRIORITY: field-agent or map operator correction required.","zone 6 junction by NNPC filling station., Wuse, Abuja, FCT, Nigeria"
"special Abacha","special-abacha","Wuse","zone 3 by General hospital","9.062046","7.466555","9.062046","7.466555","Wuse, Nigeria","0.469136","MapTiler Geocoding API","OK","HIGH","0","EXCELLENT","LOW PRIORITY","PASS","2143","2143","YES","YES","4","LOW PRIORITY: accurate enough by geocode distance but still shares coordinates; review if map overlap matters.","zone 3 by General hospital, Wuse, Abuja, FCT, Nigeria"
"Success Snacks and Drinks","success-snacks-and-drinks","Asokoro","Kwame Nkruma Crescent Asokoro opposite Catholic Church.","9.043291","7.520234","9.040667","7.525562","Kwame Nkrumah Crescent, 900103 Municipal Area Council, Nigeria","0.479798","MapTiler Geocoding API","OK","HIGH","654","NEEDS REVIEW","REVIEW","PASS","748","1393","YES","YES","1","REVIEW: candidate mismatch or no reliable candidate; verify manually.","Kwame Nkruma Crescent Asokoro opposite Catholic Church., Asokoro, Abuja, FCT, Nigeria"
"Theresa fish","theresa-fish","Jabi","Jabi Opposite fresh Choice Eatery B4 Airport junction.","9.062329","7.418314","9.075436","7.422227","Jabi Reservoir, Nigeria","0.492593","MapTiler Geocoding API","OK","MEDIUM","1519","LIKELY WRONG","HIGH PRIORITY","PASS","604","1164","YES","YES","1","HIGH PRIORITY: field-agent or map operator correction required.","Jabi Opposite fresh Choice Eatery B4 Airport junction., Jabi, Abuja, FCT, Nigeria"
"Tina Rimke dada","tina-rimke-dada","Jabi","Jabi Wazobia by Zenith bank.","9.064623","7.421007","9.064623","7.421007","Jabi District, Municipal Area Council, Nigeria","0.628395","MapTiler Geocoding API","OK","MEDIUM","0","EXCELLENT","LOW PRIORITY","PASS","234","234","YES","YES","1","LOW PRIORITY: location appears trustworthy.","Jabi Wazobia by Zenith bank., Jabi, Abuja, FCT, Nigeria"
"UCHE BEST TASTY MEAL","uche-best-tasty-meal","Utako","Adeugo Ajose street B4 peace park Utako village.","9.074458","7.443211","9.074458","7.443211","Abuja FCT, Municipal Area Council, Nigeria","0.466852","MapTiler Geocoding API","OK","HIGH","0","EXCELLENT","LOW PRIORITY","PASS","542","542","YES","YES","3","LOW PRIORITY: accurate enough by geocode distance but still shares coordinates; review if map overlap matters.","Adeugo Ajose street B4 peace park Utako village., Utako, Abuja, FCT, Nigeria"
"Ui best suya","ui-best-suya","Asokoro","Admiralty estate gate","9.049853","7.533037","9.042346","7.519686","Asokoro, Nigeria","0.497354","MapTiler Geocoding API","OK","HIGH","1687","LIKELY WRONG","HIGH PRIORITY","PASS","1996","779","YES","YES","1","HIGH PRIORITY: field-agent or map operator correction required.","Admiralty estate gate, Asokoro, Abuja, FCT, Nigeria"
"Ultimate ontop","ultimate-ontop","Jabi","15 Audu Ogbeh street Jabi Abuja","9.064814","7.425212","9.075436","7.422227","Jabi Reservoir, Nigeria","0.513333","MapTiler Geocoding API","OK","HIGH","1226","LIKELY WRONG","HIGH PRIORITY","PASS","233","1164","YES","YES","1","HIGH PRIORITY: field-agent or map operator correction required.","15 Audu Ogbeh street Jabi Abuja, Jabi, Abuja, FCT, Nigeria"
"Zoveno kitchen","zoveno-kitchen-row-028","Apo","Legislative quarters Jim Nwobodo Street Apo.","9.016075","7.480909","9.074458","7.443211","Abuja FCT, Municipal Area Council, Nigeria","0.503704","MapTiler Geocoding API","OK","HIGH","7699","LIKELY WRONG","HIGH PRIORITY","AREA_MISMATCH_CURRENT_COORDINATE","7699","0","YES","YES","2","HIGH PRIORITY: field-agent or map operator correction required.","Legislative quarters Jim Nwobodo Street Apo., Apo, Abuja, FCT, Nigeria"
"Zoveno kitchen","zoveno-kitchen-row-029","Apo","Legislative quarters Jim Nwobodo Street Apo.","9.016075","7.480909","9.074458","7.443211","Abuja FCT, Municipal Area Council, Nigeria","0.503704","MapTiler Geocoding API","OK","HIGH","7699","LIKELY WRONG","HIGH PRIORITY","AREA_MISMATCH_CURRENT_COORDINATE","7699","0","YES","YES","2","HIGH PRIORITY: field-agent or map operator correction required.","Legislative quarters Jim Nwobodo Street Apo., Apo, Abuja, FCT, Nigeria"
